{"value_x":"leftright","value_y":"forwardback","value_z":"downup","acce_x":12.05,"acce_y":12.75,"acce_z":13.916666666666666,"id":"action","timestamp":1464867830000}
{"value_x":"right","value_y":"back","value_z":"downup","acce_x":0.5666666666666667,"acce_y":2,"acce_z":17.883333333333333,"id":"action","timestamp":1464867835000}
{"value_x":"leftright","value_y":"backforward","value_z":"up","acce_x":14.016666666666667,"acce_y":13.683333333333334,"acce_z":1.3666666666666667,"id":"action","timestamp":1464867840000}
{"value_x":"leftright","value_y":"back","value_z":"up","acce_x":12.016666666666667,"acce_y":0.36666666666666664,"acce_z":3.5,"id":"action","timestamp":1464867845000}
{"value_x":"rightleft","value_y":"back","value_z":"downup","acce_x":15.716666666666667,"acce_y":0.5666666666666667,"acce_z":13.983333333333333,"id":"action","timestamp":1464867850000}
{"value_x":"left","value_y":"forwardback","value_z":"downup","acce_x":0.8,"acce_y":14.083333333333334,"acce_z":15.716666666666667,"id":"action","timestamp":1464867855000}
{"value_x":"leftright","value_y":"backforward","value_z":"up","acce_x":14.45,"acce_y":14.683333333333334,"acce_z":2.4,"id":"action","timestamp":1464867860000}
{"value_x":"left","value_y":"backforward","value_z":"up","acce_x":2.033333333333333,"acce_y":16.116666666666667,"acce_z":3.8,"id":"action","timestamp":1464867865000}
{"value_x":"right","value_y":"forwardback","value_z":"updown","acce_x":0.7,"acce_y":15.616666666666667,"acce_z":14.45,"id":"action","timestamp":1464867870000}
{"value_x":"leftright","value_y":"backforward","value_z":"updown","acce_x":18.083333333333332,"acce_y":15.183333333333334,"acce_z":18.55,"id":"action","timestamp":1464867942000}
{"value_x":"left","value_y":"backforward","value_z":"updown","acce_x":1.9666666666666666,"acce_y":12.55,"acce_z":16.716666666666665,"id":"action","timestamp":1464867947000}
{"value_x":"leftright","value_y":"backforward","value_z":"up","acce_x":11.05,"acce_y":13.55,"acce_z":0.7333333333333333,"id":"action","timestamp":1464867952000}
{"value_x":"rightleft","value_y":"backforward","value_z":"up","acce_x":12.216666666666667,"acce_y":16.083333333333332,"acce_z":4.066666666666666,"id":"action","timestamp":1464867957000}
{"value_x":"rightleft","value_y":"forward","value_z":"down","acce_x":15.383333333333333,"acce_y":0.13333333333333333,"acce_z":0.8,"id":"action","timestamp":1464867962000}
{"value_x":"rightleft","value_y":"back","value_z":"up","acce_x":15.35,"acce_y":3.2666666666666666,"acce_z":0.5666666666666667,"id":"action","timestamp":1464867967000}
{"value_x":"rightleft","value_y":"back","value_z":"downup","acce_x":13.116666666666667,"acce_y":0.26666666666666666,"acce_z":19.583333333333332,"id":"action","timestamp":1464867972000}
{"value_x":"right","value_y":"backforward","value_z":"downup","acce_x":3.4,"acce_y":14.05,"acce_z":13.483333333333333,"id":"action","timestamp":1464867977000}
{"value_x":"rightleft","value_y":"back","value_z":"down","acce_x":13.483333333333333,"acce_y":2.6333333333333333,"acce_z":2.966666666666667,"id":"action","timestamp":1464867982000}
{"value":"$GPGGA,202443.522,3857.6253,N,11522.1314,E,1,08,1.0,20.6,M,,,,0000*35","id":"GPS","timestamp":1464870283000}
{"value":"$GPGGA,202443.527,3850.2962,N,11527.8363,E,1,08,1.0,20.6,M,,,,0000*35","id":"GPS","timestamp":1464870283000}
{"value":"$GPGGA,202443.528,3855.8861,N,11528.14,E,1,08,1.0,20.6,M,,,,0000*35","id":"GPS","timestamp":1464870283000}
{"value":"$GPGGA,202443.532,3854.983,N,11524.1096,E,1,08,1.0,20.6,M,,,,0000*35","id":"GPS","timestamp":1464870283000}
{"value":"$GPGGA,202443.534,3855.6032,N,11523.7136,E,1,08,1.0,20.6,M,,,,0000*35","id":"GPS","timestamp":1464870283000}
{"value":"$GPGGA,202443.535,3856.5143,N,11523.5302,E,1,08,1.0,20.6,M,,,,0000*35","id":"GPS","timestamp":1464870283000}
{"value":"$GPGGA,202443.537,3859.8711,N,11526.2412,E,1,08,1.0,20.6,M,,,,0000*35","id":"GPS","timestamp":1464870283000}
{"value":"$GPGGA,202443.539,3850.6484,N,11521.3946,E,1,08,1.0,20.6,M,,,,0000*35","id":"GPS","timestamp":1464870283000}
{"value":"$GPGGA,202443.542,3853.0267,N,11529.6357,E,1,08,1.0,20.6,M,,,,0000*35","id":"GPS","timestamp":1464870283000}
{"value":"$GPGGA,202443.545,3851.0633,N,11522.7316,E,1,08,1.0,20.6,M,,,,0000*35","id":"GPS","timestamp":1464870283000}
{"value":"$GPGGA,202443.551,3858.8018,N,11525.8946,E,1,08,1.0,20.6,M,,,,0000*35","id":"GPS","timestamp":1464870283000}
{"value":"$GPGGA,202443.554,3859.7195,N,11522.239,E,1,08,1.0,20.6,M,,,,0000*35","id":"GPS","timestamp":1464870283000}
{"value":"$GPGGA,202443.556,3850.4398,N,11529.4583,E,1,08,1.0,20.6,M,,,,0000*35","id":"GPS","timestamp":1464870283000}
{"value":"$GPGGA,202443.557,3850.753,N,11526.8239,E,1,08,1.0,20.6,M,,,,0000*35","id":"GPS","timestamp":1464870283000}
{"value":"$GPGGA,202443.558,3854.8187,N,11520.7486,E,1,08,1.0,20.6,M,,,,0000*35","id":"GPS","timestamp":1464870283000}
{"value":"$GPGGA,202443.559,3855.7639,N,11522.5112,E,1,08,1.0,20.6,M,,,,0000*35","id":"GPS","timestamp":1464870283000}
{"value":"$GPGGA,202443.560,3857.4204,N,11529.5854,E,1,08,1.0,20.6,M,,,,0000*35","id":"GPS","timestamp":1464870283000}
{"value":"$GPGGA,202443.561,3857.1405,N,11525.9049,E,1,08,1.0,20.6,M,,,,0000*35","id":"GPS","timestamp":1464870283000}
{"value":"$GPGGA,202443.563,3856.3413,N,11524.318,E,1,08,1.0,20.6,M,,,,0000*35","id":"GPS","timestamp":1464870283000}
{"value":"$GPGGA,202443.576,3854.0609,N,11527.8003,E,1,08,1.0,20.6,M,,,,0000*35","id":"GPS","timestamp":1464870283000}
{"value":"$GPGGA,202443.579,3857.6482,N,11528.5219,E,1,08,1.0,20.6,M,,,,0000*35","id":"GPS","timestamp":1464870283000}
{"value":"$GPGGA,202443.580,3851.6204,N,11526.9091,E,1,08,1.0,20.6,M,,,,0000*35","id":"GPS","timestamp":1464870283000}
{"value":"$GPGGA,202443.581,3850.2044,N,11525.7036,E,1,08,1.0,20.6,M,,,,0000*35","id":"GPS","timestamp":1464870283000}
{"value":"$GPGGA,202443.587,3855.6534,N,11522.0348,E,1,08,1.0,20.6,M,,,,0000*35","id":"GPS","timestamp":1464870283000}
{"value":"$GPGGA,202443.588,3858.2696,N,11529.658,E,1,08,1.0,20.6,M,,,,0000*35","id":"GPS","timestamp":1464870283000}
{"value":"$GPGGA,202443.589,3854.1751,N,11527.1367,E,1,08,1.0,20.6,M,,,,0000*35","id":"GPS","timestamp":1464870283000}
{"value":"$GPGGA,202443.590,3855.6375,N,11523.5574,E,1,08,1.0,20.6,M,,,,0000*35","id":"GPS","timestamp":1464870283000}
{"value":"$GPGGA,202443.591,3859.3363,N,11523.4341,E,1,08,1.0,20.6,M,,,,0000*35","id":"GPS","timestamp":1464870283000}
{"value":"$GPGGA,202443.592,3857.4169,N,11526.5628,E,1,08,1.0,20.6,M,,,,0000*35","id":"GPS","timestamp":1464870283000}
{"value":"$GPGGA,202443.593,3856.6667,N,11529.9714,E,1,08,1.0,20.6,M,,,,0000*35","id":"GPS","timestamp":1464870283000}
{"value":"$GPGGA,202443.594,3854.6161,N,11528.0744,E,1,08,1.0,20.6,M,,,,0000*35","id":"GPS","timestamp":1464870283000}
{"value":"$GPGGA,202443.595,3851.6349,N,11528.1461,E,1,08,1.0,20.6,M,,,,0000*35","id":"GPS","timestamp":1464870283000}
{"value":"$GPGGA,202443.596,3853.8597,N,11522.8249,E,1,08,1.0,20.6,M,,,,0000*35","id":"GPS","timestamp":1464870283000}
{"value":"$GPGGA,202443.597,3853.2809,N,11523.4612,E,1,08,1.0,20.6,M,,,,0000*35","id":"GPS","timestamp":1464870283000}
{"value":"$GPGGA,202443.598,3855.4574,N,11526.1778,E,1,08,1.0,20.6,M,,,,0000*35","id":"GPS","timestamp":1464870283000}
{"value":"$GPGGA,202443.599,3854.9518,N,11529.582,E,1,08,1.0,20.6,M,,,,0000*35","id":"GPS","timestamp":1464870283000}
{"value":"$GPGGA,202443.600,3853.1848,N,11522.0896,E,1,08,1.0,20.6,M,,,,0000*35","id":"GPS","timestamp":1464870283000}
{"value":"$GPGGA,202443.601,3855.2568,N,11528.0254,E,1,08,1.0,20.6,M,,,,0000*35","id":"GPS","timestamp":1464870283000}
{"value":"$GPGGA,202443.607,3858.6889,N,11521.4928,E,1,08,1.0,20.6,M,,,,0000*35","id":"GPS","timestamp":1464870283000}
{"value":"$GPGGA,202443.608,3856.9856,N,11528.5003,E,1,08,1.0,20.6,M,,,,0000*35","id":"GPS","timestamp":1464870283000}
{"value":"$GPGGA,202443.609,3850.7734,N,11525.2158,E,1,08,1.0,20.6,M,,,,0000*35","id":"GPS","timestamp":1464870283000}
{"value":"$GPGGA,202443.610,3850.3526,N,11526.6139,E,1,08,1.0,20.6,M,,,,0000*35","id":"GPS","timestamp":1464870283000}
{"value":"$GPGGA,202443.611,3856.3615,N,11520.4173,E,1,08,1.0,20.6,M,,,,0000*35","id":"GPS","timestamp":1464870283000}
{"value":"$GPGGA,202443.612,3853.4208,N,11525.6123,E,1,08,1.0,20.6,M,,,,0000*35","id":"GPS","timestamp":1464870283000}
{"value":"$GPGGA,202443.614,3858.5936,N,11524.1053,E,1,08,1.0,20.6,M,,,,0000*35","id":"GPS","timestamp":1464870283000}
{"value":"$GPGGA,202443.617,3859.564,N,11528.3151,E,1,08,1.0,20.6,M,,,,0000*35","id":"GPS","timestamp":1464870283000}
{"value":"$GPGGA,202443.618,3851.575,N,11527.0066,E,1,08,1.0,20.6,M,,,,0000*35","id":"GPS","timestamp":1464870283000}
{"value":"$GPGGA,202443.619,3858.183,N,11528.3671,E,1,08,1.0,20.6,M,,,,0000*35","id":"GPS","timestamp":1464870283000}
{"value":"$GPGGA,202443.620,3859.3404,N,11529.0387,E,1,08,1.0,20.6,M,,,,0000*35","id":"GPS","timestamp":1464870283000}
{"value":"$GPGGA,202443.621,3857.5126,N,11523.0818,E,1,08,1.0,20.6,M,,,,0000*35","id":"GPS","timestamp":1464870283000}
{"value":"$GPGGA,202443.623,3854.4875,N,11529.7025,E,1,08,1.0,20.6,M,,,,0000*35","id":"GPS","timestamp":1464870283000}
{"value":"$GPGGA,202443.626,3856.4732,N,11522.3647,E,1,08,1.0,20.6,M,,,,0000*35","id":"GPS","timestamp":1464870283000}
{"value":"$GPGGA,202443.630,3856.5023,N,11525.8176,E,1,08,1.0,20.6,M,,,,0000*35","id":"GPS","timestamp":1464870283000}
{"value":"$GPGGA,202443.633,3859.7512,N,11524.459,E,1,08,1.0,20.6,M,,,,0000*35","id":"GPS","timestamp":1464870283000}
{"value":"$GPGGA,202443.635,3857.0705,N,11521.7123,E,1,08,1.0,20.6,M,,,,0000*35","id":"GPS","timestamp":1464870283000}
{"value":"$GPGGA,202443.640,3852.708,N,11522.5505,E,1,08,1.0,20.6,M,,,,0000*35","id":"GPS","timestamp":1464870283000}
{"value":"$GPGGA,202443.643,3856.3789,N,11520.1804,E,1,08,1.0,20.6,M,,,,0000*35","id":"GPS","timestamp":1464870283000}
{"value":"$GPGGA,202443.646,3853.6257,N,11520.3545,E,1,08,1.0,20.6,M,,,,0000*35","id":"GPS","timestamp":1464870283000}
{"value":"$GPGGA,202443.647,3851.9414,N,11523.1021,E,1,08,1.0,20.6,M,,,,0000*35","id":"GPS","timestamp":1464870283000}
{"value":"$GPGGA,202443.648,3858.859,N,11527.6813,E,1,08,1.0,20.6,M,,,,0000*35","id":"GPS","timestamp":1464870283000}
{"value":"$GPGGA,202443.652,3855.8149,N,11523.3059,E,1,08,1.0,20.6,M,,,,0000*35","id":"GPS","timestamp":1464870283000}
{"value":"$GPGGA,202443.653,3855.4741,N,11526.0115,E,1,08,1.0,20.6,M,,,,0000*35","id":"GPS","timestamp":1464870283000}
{"value":"$GPGGA,202443.654,3856.1922,N,11526.4642,E,1,08,1.0,20.6,M,,,,0000*35","id":"GPS","timestamp":1464870283000}
{"value":"$GPGGA,202443.655,3851.8318,N,11526.6991,E,1,08,1.0,20.6,M,,,,0000*35","id":"GPS","timestamp":1464870283000}
{"value":"$GPGGA,202443.660,3854.6669,N,11523.3103,E,1,08,1.0,20.6,M,,,,0000*35","id":"GPS","timestamp":1464870283000}
{"value":"$GPGGA,202443.661,3854.9418,N,11529.9678,E,1,08,1.0,20.6,M,,,,0000*35","id":"GPS","timestamp":1464870283000}
{"value":"$GPGGA,202443.663,3858.1136,N,11520.1552,E,1,08,1.0,20.6,M,,,,0000*35","id":"GPS","timestamp":1464870283000}
{"value":"$GPGGA,202443.684,3850.1617,N,11523.521,E,1,08,1.0,20.6,M,,,,0000*35","id":"GPS","timestamp":1464870283000}
{"value":"$GPGGA,202443.687,3850.3027,N,11526.5183,E,1,08,1.0,20.6,M,,,,0000*35","id":"GPS","timestamp":1464870283000}
{"value":"$GPGGA,202443.691,3854.1219,N,11528.8694,E,1,08,1.0,20.6,M,,,,0000*35","id":"GPS","timestamp":1464870283000}
{"value":"$GPGGA,202443.695,3855.0408,N,11526.9997,E,1,08,1.0,20.6,M,,,,0000*35","id":"GPS","timestamp":1464870283000}
{"value":"$GPGGA,202443.702,3855.3342,N,11526.9654,E,1,08,1.0,20.6,M,,,,0000*35","id":"GPS","timestamp":1464870283000}
{"value":"$GPGGA,202443.706,3856.404,N,11525.3364,E,1,08,1.0,20.6,M,,,,0000*35","id":"GPS","timestamp":1464870283000}
{"value":"$GPGGA,202443.707,3855.3178,N,11529.3825,E,1,08,1.0,20.6,M,,,,0000*35","id":"GPS","timestamp":1464870283000}
{"value":"$GPGGA,202443.709,3857.5198,N,11522.4809,E,1,08,1.0,20.6,M,,,,0000*35","id":"GPS","timestamp":1464870283000}
{"value":"$GPGGA,202443.710,3850.4227,N,11521.3948,E,1,08,1.0,20.6,M,,,,0000*35","id":"GPS","timestamp":1464870283000}
{"value":"$GPGGA,202443.711,3858.4668,N,11526.7314,E,1,08,1.0,20.6,M,,,,0000*35","id":"GPS","timestamp":1464870283000}
{"value":"$GPGGA,202443.713,3856.9869,N,11524.7019,E,1,08,1.0,20.6,M,,,,0000*35","id":"GPS","timestamp":1464870283000}
{"value":"$GPGGA,202443.716,3856.1562,N,11526.8304,E,1,08,1.0,20.6,M,,,,0000*35","id":"GPS","timestamp":1464870283000}
{"value":"$GPGGA,202443.718,3851.8539,N,11525.718,E,1,08,1.0,20.6,M,,,,0000*35","id":"GPS","timestamp":1464870283000}
{"value":"$GPGGA,202443.719,3854.7163,N,11524.4162,E,1,08,1.0,20.6,M,,,,0000*35","id":"GPS","timestamp":1464870283000}
{"value":"$GPGGA,202443.720,3852.6095,N,11528.7964,E,1,08,1.0,20.6,M,,,,0000*35","id":"GPS","timestamp":1464870283000}
{"value":"$GPGGA,202443.721,3859.5704,N,11525.1543,E,1,08,1.0,20.6,M,,,,0000*35","id":"GPS","timestamp":1464870283000}
{"value":"$GPGGA,202443.723,3854.0555,N,11528.9886,E,1,08,1.0,20.6,M,,,,0000*35","id":"GPS","timestamp":1464870283000}
{"value":"$GPGGA,202443.724,3853.6783,N,11529.1768,E,1,08,1.0,20.6,M,,,,0000*35","id":"GPS","timestamp":1464870283000}
{"value":"$GPGGA,202443.725,3855.7544,N,11521.5068,E,1,08,1.0,20.6,M,,,,0000*35","id":"GPS","timestamp":1464870283000}
{"value":"$GPGGA,202443.727,3859.2849,N,11525.7291,E,1,08,1.0,20.6,M,,,,0000*35","id":"GPS","timestamp":1464870283000}
{"value":"$GPGGA,202443.729,3857.5953,N,11523.2998,E,1,08,1.0,20.6,M,,,,0000*35","id":"GPS","timestamp":1464870283000}
{"value":"$GPGGA,202443.730,3855.9174,N,11520.8797,E,1,08,1.0,20.6,M,,,,0000*35","id":"GPS","timestamp":1464870283000}
{"value":"$GPGGA,202443.731,3852.0635,N,11524.1742,E,1,08,1.0,20.6,M,,,,0000*35","id":"GPS","timestamp":1464870283000}
{"value":"$GPGGA,202443.735,3851.2915,N,11526.9638,E,1,08,1.0,20.6,M,,,,0000*35","id":"GPS","timestamp":1464870283000}
{"value":"$GPGGA,202443.737,3857.7802,N,11528.045,E,1,08,1.0,20.6,M,,,,0000*35","id":"GPS","timestamp":1464870283000}
{"value":"$GPGGA,202443.738,3851.5316,N,11525.603,E,1,08,1.0,20.6,M,,,,0000*35","id":"GPS","timestamp":1464870283000}
{"value":"$GPGGA,202443.739,3850.2531,N,11525.7154,E,1,08,1.0,20.6,M,,,,0000*35","id":"GPS","timestamp":1464870283000}
{"value":"$GPGGA,202443.740,3857.5062,N,11526.6187,E,1,08,1.0,20.6,M,,,,0000*35","id":"GPS","timestamp":1464870283000}
{"value":"$GPGGA,202443.742,3856.3667,N,11523.958,E,1,08,1.0,20.6,M,,,,0000*35","id":"GPS","timestamp":1464870283000}
{"value":"$GPGGA,202443.743,3854.0823,N,11522.8636,E,1,08,1.0,20.6,M,,,,0000*35","id":"GPS","timestamp":1464870283000}
{"value":"$GPGGA,202443.745,3859.3855,N,11529.1166,E,1,08,1.0,20.6,M,,,,0000*35","id":"GPS","timestamp":1464870283000}
{"value":"$GPGGA,202443.747,3853.3676,N,11527.8509,E,1,08,1.0,20.6,M,,,,0000*35","id":"GPS","timestamp":1464870283000}
{"value":"$GPGGA,202443.748,3850.8426,N,11521.3125,E,1,08,1.0,20.6,M,,,,0000*35","id":"GPS","timestamp":1464870283000}
{"value":"$GPGGA,202443.749,3852.9561,N,11528.5773,E,1,08,1.0,20.6,M,,,,0000*35","id":"GPS","timestamp":1464870283000}
{"value":"$GPGGA,202443.750,3859.0005,N,11529.5128,E,1,08,1.0,20.6,M,,,,0000*35","id":"GPS","timestamp":1464870283000}
{"value":"$GPGGA,202443.751,3855.2722,N,11527.9349,E,1,08,1.0,20.6,M,,,,0000*35","id":"GPS","timestamp":1464870283000}
{"value":"$GPGGA,202443.753,3854.5044,N,11523.6652,E,1,08,1.0,20.6,M,,,,0000*35","id":"GPS","timestamp":1464870283000}
{"value":"$GPGGA,202443.756,3854.0944,N,11522.8757,E,1,08,1.0,20.6,M,,,,0000*35","id":"GPS","timestamp":1464870283000}
{"value":"$GPGGA,202443.793,3859.4816,N,11522.3505,E,1,08,1.0,20.6,M,,,,0000*35","id":"GPS","timestamp":1464870283000}
{"value":"$GPGGA,202443.800,3851.4721,N,11521.0841,E,1,08,1.0,20.6,M,,,,0000*35","id":"GPS","timestamp":1464870283000}
{"value":"$GPGGA,202443.804,3854.6434,N,11528.0869,E,1,08,1.0,20.6,M,,,,0000*35","id":"GPS","timestamp":1464870283000}
{"value":"$GPGGA,202443.808,3857.2375,N,11522.479,E,1,08,1.0,20.6,M,,,,0000*35","id":"GPS","timestamp":1464870283000}
{"value":"$GPGGA,202443.847,3857.3311,N,11520.1483,E,1,08,1.0,20.6,M,,,,0000*35","id":"GPS","timestamp":1464870283000}
{"value":"$GPGGA,202443.852,3853.393,N,11524.8272,E,1,08,1.0,20.6,M,,,,0000*35","id":"GPS","timestamp":1464870283000}
{"value":"$GPGGA,202443.855,3853.8696,N,11527.9861,E,1,08,1.0,20.6,M,,,,0000*35","id":"GPS","timestamp":1464870283000}
{"value":"$GPGGA,202443.857,3858.5081,N,11521.3578,E,1,08,1.0,20.6,M,,,,0000*35","id":"GPS","timestamp":1464870283000}
{"value":"$GPGGA,202443.859,3852.1595,N,11524.7853,E,1,08,1.0,20.6,M,,,,0000*35","id":"GPS","timestamp":1464870283000}
{"value":"$GPGGA,202443.860,3856.9613,N,11521.9716,E,1,08,1.0,20.6,M,,,,0000*35","id":"GPS","timestamp":1464870283000}
{"value":"$GPGGA,202443.869,3859.6493,N,11525.6262,E,1,08,1.0,20.6,M,,,,0000*35","id":"GPS","timestamp":1464870283000}
{"value":"$GPGGA,202443.879,3853.4139,N,11523.2432,E,1,08,1.0,20.6,M,,,,0000*35","id":"GPS","timestamp":1464870283000}
{"value":"$GPGGA,202443.884,3854.0869,N,11525.2016,E,1,08,1.0,20.6,M,,,,0000*35","id":"GPS","timestamp":1464870283000}
{"value":"$GPGGA,202443.886,3855.4062,N,11525.0181,E,1,08,1.0,20.6,M,,,,0000*35","id":"GPS","timestamp":1464870283000}
{"value":"$GPGGA,202443.888,3856.1243,N,11529.1738,E,1,08,1.0,20.6,M,,,,0000*35","id":"GPS","timestamp":1464870283000}
{"value":"$GPGGA,202443.892,3854.1552,N,11529.3528,E,1,08,1.0,20.6,M,,,,0000*35","id":"GPS","timestamp":1464870283000}
{"value":"$GPGGA,202443.892,3850.7238,N,11521.3235,E,1,08,1.0,20.6,M,,,,0000*35","id":"GPS","timestamp":1464870283000}
{"value":"$GPGGA,202443.893,3851.007,N,11525.2668,E,1,08,1.0,20.6,M,,,,0000*35","id":"GPS","timestamp":1464870283000}
{"value":"$GPGGA,202443.896,3859.3042,N,11523.4096,E,1,08,1.0,20.6,M,,,,0000*35","id":"GPS","timestamp":1464870283000}
{"value":"$GPGGA,202443.898,3857.2225,N,11521.5786,E,1,08,1.0,20.6,M,,,,0000*35","id":"GPS","timestamp":1464870283000}
{"value":"$GPGGA,202443.899,3852.7339,N,11520.211,E,1,08,1.0,20.6,M,,,,0000*35","id":"GPS","timestamp":1464870283000}
{"value":"$GPGGA,202443.902,3852.8548,N,11521.5043,E,1,08,1.0,20.6,M,,,,0000*35","id":"GPS","timestamp":1464870283000}
{"value":"$GPGGA,202443.904,3851.7174,N,11524.716,E,1,08,1.0,20.6,M,,,,0000*35","id":"GPS","timestamp":1464870283000}
{"value":"$GPGGA,202443.905,3857.8132,N,11521.677,E,1,08,1.0,20.6,M,,,,0000*35","id":"GPS","timestamp":1464870283000}
{"value":"$GPGGA,202443.908,3857.3944,N,11528.9077,E,1,08,1.0,20.6,M,,,,0000*35","id":"GPS","timestamp":1464870283000}
{"value":"$GPGGA,202443.910,3856.4822,N,11524.4645,E,1,08,1.0,20.6,M,,,,0000*35","id":"GPS","timestamp":1464870283000}
{"value":"$GPGGA,202443.914,3855.2129,N,11529.0961,E,1,08,1.0,20.6,M,,,,0000*35","id":"GPS","timestamp":1464870283000}
{"value":"$GPGGA,202443.916,3850.8131,N,11520.6813,E,1,08,1.0,20.6,M,,,,0000*35","id":"GPS","timestamp":1464870283000}
{"value":"$GPGGA,202443.918,3851.4005,N,11520.3308,E,1,08,1.0,20.6,M,,,,0000*35","id":"GPS","timestamp":1464870283000}
{"value":"$GPGGA,202443.920,3854.8995,N,11527.0768,E,1,08,1.0,20.6,M,,,,0000*35","id":"GPS","timestamp":1464870283000}
{"value":"$GPGGA,202443.924,3854.631,N,11526.8917,E,1,08,1.0,20.6,M,,,,0000*35","id":"GPS","timestamp":1464870283000}
{"value":"$GPGGA,202443.927,3857.4004,N,11520.3887,E,1,08,1.0,20.6,M,,,,0000*35","id":"GPS","timestamp":1464870283000}
{"value":"$GPGGA,202443.952,3859.2397,N,11521.0782,E,1,08,1.0,20.6,M,,,,0000*35","id":"GPS","timestamp":1464870283000}
{"value":"$GPGGA,202443.957,3852.2362,N,11528.5416,E,1,08,1.0,20.6,M,,,,0000*35","id":"GPS","timestamp":1464870283000}
{"value":"$GPGGA,202443.963,3855.0311,N,11520.8353,E,1,08,1.0,20.6,M,,,,0000*35","id":"GPS","timestamp":1464870283000}
{"value":"$GPGGA,202443.968,3851.2322,N,11525.8442,E,1,08,1.0,20.6,M,,,,0000*35","id":"GPS","timestamp":1464870283000}
{"value":"$GPGGA,202443.971,3859.7542,N,11529.4895,E,1,08,1.0,20.6,M,,,,0000*35","id":"GPS","timestamp":1464870283000}
{"value":"$GPGGA,202443.974,3857.3032,N,11528.6147,E,1,08,1.0,20.6,M,,,,0000*35","id":"GPS","timestamp":1464870283000}
{"value":"$GPGGA,202443.977,3854.2306,N,11528.2718,E,1,08,1.0,20.6,M,,,,0000*35","id":"GPS","timestamp":1464870283000}
{"value":"$GPGGA,202443.978,3851.5295,N,11527.1491,E,1,08,1.0,20.6,M,,,,0000*35","id":"GPS","timestamp":1464870283000}
{"value":"$GPGGA,202443.980,3857.7535,N,11526.643,E,1,08,1.0,20.6,M,,,,0000*35","id":"GPS","timestamp":1464870283000}
{"value":"$GPGGA,202443.981,3853.8692,N,11522.9834,E,1,08,1.0,20.6,M,,,,0000*35","id":"GPS","timestamp":1464870283000}
{"value":"$GPGGA,202443.982,3858.9872,N,11528.6228,E,1,08,1.0,20.6,M,,,,0000*35","id":"GPS","timestamp":1464870283000}
{"value":"$GPGGA,202443.984,3850.5053,N,11521.4621,E,1,08,1.0,20.6,M,,,,0000*35","id":"GPS","timestamp":1464870283000}
{"value":"$GPGGA,202443.986,3858.9999,N,11526.5506,E,1,08,1.0,20.6,M,,,,0000*35","id":"GPS","timestamp":1464870283000}
{"value":"$GPGGA,202443.988,3857.0093,N,11529.0726,E,1,08,1.0,20.6,M,,,,0000*35","id":"GPS","timestamp":1464870283000}
{"value":"$GPGGA,202443.991,3850.3799,N,11520.1325,E,1,08,1.0,20.6,M,,,,0000*35","id":"GPS","timestamp":1464870283000}
{"value":"$GPGGA,202443.994,3858.1113,N,11523.4308,E,1,08,1.0,20.6,M,,,,0000*35","id":"GPS","timestamp":1464870283000}
{"value":"$GPGGA,202443.996,3859.3056,N,11527.665,E,1,08,1.0,20.6,M,,,,0000*35","id":"GPS","timestamp":1464870283000}
{"value":"$GPGGA,202443.998,3851.5636,N,11523.242,E,1,08,1.0,20.6,M,,,,0000*35","id":"GPS","timestamp":1464870283000}
{"value":"$GPGGA,202444.0,3851.5685,N,11520.0621,E,1,08,1.0,20.6,M,,,,0000*35","id":"GPS","timestamp":1464870284000}
{"value":"$GPGGA,202444.1,3850.1535,N,11527.6838,E,1,08,1.0,20.6,M,,,,0000*35","id":"GPS","timestamp":1464870284000}
{"value":"$GPGGA,202444.3,3857.4384,N,11525.6454,E,1,08,1.0,20.6,M,,,,0000*35","id":"GPS","timestamp":1464870284000}
{"value":"$GPGGA,202444.9,3856.7007,N,11523.2277,E,1,08,1.0,20.6,M,,,,0000*35","id":"GPS","timestamp":1464870284000}
{"value":"$GPGGA,202444.10,3854.3728,N,11520.8706,E,1,08,1.0,20.6,M,,,,0000*35","id":"GPS","timestamp":1464870284000}
{"value":"$GPGGA,202444.12,3856.569,N,11527.6632,E,1,08,1.0,20.6,M,,,,0000*35","id":"GPS","timestamp":1464870284000}
{"value":"$GPGGA,202444.15,3857.7969,N,11528.1138,E,1,08,1.0,20.6,M,,,,0000*35","id":"GPS","timestamp":1464870284000}
{"value":"$GPGGA,202444.18,3852.3091,N,11525.5315,E,1,08,1.0,20.6,M,,,,0000*35","id":"GPS","timestamp":1464870284000}
{"value":"$GPGGA,202444.21,3852.9245,N,11527.4968,E,1,08,1.0,20.6,M,,,,0000*35","id":"GPS","timestamp":1464870284000}
{"value":"$GPGGA,202444.24,3858.0302,N,11524.5911,E,1,08,1.0,20.6,M,,,,0000*35","id":"GPS","timestamp":1464870284000}
{"value":"$GPGGA,202444.27,3859.1014,N,11526.9327,E,1,08,1.0,20.6,M,,,,0000*35","id":"GPS","timestamp":1464870284000}
{"value":"$GPGGA,202444.30,3855.9411,N,11528.309,E,1,08,1.0,20.6,M,,,,0000*35","id":"GPS","timestamp":1464870284000}
{"value":"$GPGGA,202444.33,3850.5319,N,11520.0774,E,1,08,1.0,20.6,M,,,,0000*35","id":"GPS","timestamp":1464870284000}
{"value":"$GPGGA,202444.34,3854.9844,N,11526.6518,E,1,08,1.0,20.6,M,,,,0000*35","id":"GPS","timestamp":1464870284000}
{"value":"$GPGGA,202444.35,3852.6746,N,11524.1568,E,1,08,1.0,20.6,M,,,,0000*35","id":"GPS","timestamp":1464870284000}
{"value":"$GPGGA,202444.41,3855.0764,N,11526.7234,E,1,08,1.0,20.6,M,,,,0000*35","id":"GPS","timestamp":1464870284000}
{"value":"$GPGGA,202444.59,3852.9939,N,11529.6024,E,1,08,1.0,20.6,M,,,,0000*35","id":"GPS","timestamp":1464870284000}
{"value":"$GPGGA,202444.62,3851.3014,N,11527.2827,E,1,08,1.0,20.6,M,,,,0000*35","id":"GPS","timestamp":1464870284000}
{"value":"$GPGGA,202444.65,3854.9556,N,11528.6649,E,1,08,1.0,20.6,M,,,,0000*35","id":"GPS","timestamp":1464870284000}
{"value":"$GPGGA,202444.67,3858.7161,N,11524.1264,E,1,08,1.0,20.6,M,,,,0000*35","id":"GPS","timestamp":1464870284000}
{"value":"$GPGGA,202444.71,3859.2577,N,11526.7433,E,1,08,1.0,20.6,M,,,,0000*35","id":"GPS","timestamp":1464870284000}
{"value":"$GPGGA,202444.75,3854.5461,N,11527.1552,E,1,08,1.0,20.6,M,,,,0000*35","id":"GPS","timestamp":1464870284000}
{"value":"$GPGGA,202444.78,3858.6298,N,11526.5546,E,1,08,1.0,20.6,M,,,,0000*35","id":"GPS","timestamp":1464870284000}
{"value":"$GPGGA,202444.80,3851.1889,N,11526.0884,E,1,08,1.0,20.6,M,,,,0000*35","id":"GPS","timestamp":1464870284000}
{"value":"$GPGGA,202444.83,3851.5978,N,11529.0679,E,1,08,1.0,20.6,M,,,,0000*35","id":"GPS","timestamp":1464870284000}
{"value":"$GPGGA,202444.85,3853.6052,N,11521.3931,E,1,08,1.0,20.6,M,,,,0000*35","id":"GPS","timestamp":1464870284000}
{"value":"$GPGGA,202444.91,3856.3285,N,11521.9792,E,1,08,1.0,20.6,M,,,,0000*35","id":"GPS","timestamp":1464870284000}
{"value":"$GPGGA,202444.94,3857.0332,N,11526.9959,E,1,08,1.0,20.6,M,,,,0000*35","id":"GPS","timestamp":1464870284000}
{"value":"$GPGGA,202444.96,3857.1033,N,11523.9096,E,1,08,1.0,20.6,M,,,,0000*35","id":"GPS","timestamp":1464870284000}
{"value":"$GPGGA,202444.98,3859.4162,N,11522.3875,E,1,08,1.0,20.6,M,,,,0000*35","id":"GPS","timestamp":1464870284000}
{"value":"$GPGGA,202444.99,3857.2347,N,11521.3901,E,1,08,1.0,20.6,M,,,,0000*35","id":"GPS","timestamp":1464870284000}
{"value":"$GPGGA,202444.100,3855.055,N,11520.8,E,1,08,1.0,20.6,M,,,,0000*35","id":"GPS","timestamp":1464870284000}
{"value":"$GPGGA,202444.101,3852.9697,N,11523.2895,E,1,08,1.0,20.6,M,,,,0000*35","id":"GPS","timestamp":1464870284000}
{"value":"$GPGGA,202444.102,3850.3171,N,11527.8148,E,1,08,1.0,20.6,M,,,,0000*35","id":"GPS","timestamp":1464870284000}
{"value":"$GPGGA,202444.104,3850.7297,N,11525.4444,E,1,08,1.0,20.6,M,,,,0000*35","id":"GPS","timestamp":1464870284000}
{"value":"$GPGGA,202444.106,3851.5776,N,11525.7376,E,1,08,1.0,20.6,M,,,,0000*35","id":"GPS","timestamp":1464870284000}
{"value":"$GPGGA,202444.109,3859.5399,N,11524.0809,E,1,08,1.0,20.6,M,,,,0000*35","id":"GPS","timestamp":1464870284000}
{"value":"$GPGGA,202444.111,3859.6387,N,11526.3766,E,1,08,1.0,20.6,M,,,,0000*35","id":"GPS","timestamp":1464870284000}
{"value":"$GPGGA,202444.114,3850.8631,N,11522.3135,E,1,08,1.0,20.6,M,,,,0000*35","id":"GPS","timestamp":1464870284000}
{"value":"$GPGGA,202444.117,3850.5692,N,11522.4621,E,1,08,1.0,20.6,M,,,,0000*35","id":"GPS","timestamp":1464870284000}
{"value":"$GPGGA,202444.120,3850.1178,N,11524.5727,E,1,08,1.0,20.6,M,,,,0000*35","id":"GPS","timestamp":1464870284000}
{"value":"$GPGGA,202444.122,3854.0341,N,11526.4173,E,1,08,1.0,20.6,M,,,,0000*35","id":"GPS","timestamp":1464870284000}
{"value":"$GPGGA,202444.123,3853.8808,N,11522.0094,E,1,08,1.0,20.6,M,,,,0000*35","id":"GPS","timestamp":1464870284000}
{"value":"$GPGGA,202444.125,3858.3382,N,11527.6728,E,1,08,1.0,20.6,M,,,,0000*35","id":"GPS","timestamp":1464870284000}
{"value":"$GPGGA,202444.128,3851.6067,N,11529.0711,E,1,08,1.0,20.6,M,,,,0000*35","id":"GPS","timestamp":1464870284000}
{"value":"$GPGGA,202444.180,3851.3819,N,11526.9976,E,1,08,1.0,20.6,M,,,,0000*35","id":"GPS","timestamp":1464870284000}
{"value":"$GPGGA,202444.195,3855.8114,N,11529.8411,E,1,08,1.0,20.6,M,,,,0000*35","id":"GPS","timestamp":1464870284000}
{"value":"$GPGGA,202444.200,3854.8904,N,11524.6237,E,1,08,1.0,20.6,M,,,,0000*35","id":"GPS","timestamp":1464870284000}
{"value":"$GPGGA,202444.206,3854.2346,N,11528.704,E,1,08,1.0,20.6,M,,,,0000*35","id":"GPS","timestamp":1464870284000}
{"value":"$GPGGA,202444.212,3852.8147,N,11520.2859,E,1,08,1.0,20.6,M,,,,0000*35","id":"GPS","timestamp":1464870284000}
{"value":"$GPGGA,202444.217,3853.6965,N,11526.9216,E,1,08,1.0,20.6,M,,,,0000*35","id":"GPS","timestamp":1464870284000}
{"value":"$GPGGA,202444.227,3856.3706,N,11522.8204,E,1,08,1.0,20.6,M,,,,0000*35","id":"GPS","timestamp":1464870284000}
{"value":"$GPGGA,202444.242,3851.4369,N,11525.6954,E,1,08,1.0,20.6,M,,,,0000*35","id":"GPS","timestamp":1464870284000}
{"value":"$GPGGA,202444.248,3857.4299,N,11521.0334,E,1,08,1.0,20.6,M,,,,0000*35","id":"GPS","timestamp":1464870284000}
{"value":"$GPGGA,202444.259,3852.8975,N,11529.3041,E,1,08,1.0,20.6,M,,,,0000*35","id":"GPS","timestamp":1464870284000}
{"value":"$GPGGA,202444.267,3852.7578,N,11524.2685,E,1,08,1.0,20.6,M,,,,0000*35","id":"GPS","timestamp":1464870284000}
{"value":"$GPGGA,202444.271,3858.9481,N,11524.6795,E,1,08,1.0,20.6,M,,,,0000*35","id":"GPS","timestamp":1464870284000}
{"value":"$GPGGA,202444.274,3852.2753,N,11523.8293,E,1,08,1.0,20.6,M,,,,0000*35","id":"GPS","timestamp":1464870284000}
{"value":"$GPGGA,202444.282,3850.9778,N,11520.4847,E,1,08,1.0,20.6,M,,,,0000*35","id":"GPS","timestamp":1464870284000}
{"value":"$GPGGA,202444.288,3857.9521,N,11526.8194,E,1,08,1.0,20.6,M,,,,0000*35","id":"GPS","timestamp":1464870284000}
{"value":"$GPGGA,202444.292,3854.2645,N,11528.5353,E,1,08,1.0,20.6,M,,,,0000*35","id":"GPS","timestamp":1464870284000}
{"value":"$GPGGA,202444.295,3852.7916,N,11522.0633,E,1,08,1.0,20.6,M,,,,0000*35","id":"GPS","timestamp":1464870284000}
{"value":"$GPGGA,202444.298,3859.1979,N,11527.7213,E,1,08,1.0,20.6,M,,,,0000*35","id":"GPS","timestamp":1464870284000}
{"value":"$GPGGA,202444.301,3853.9607,N,11523.9758,E,1,08,1.0,20.6,M,,,,0000*35","id":"GPS","timestamp":1464870284000}
{"value":"$GPGGA,202444.306,3852.5548,N,11523.7601,E,1,08,1.0,20.6,M,,,,0000*35","id":"GPS","timestamp":1464870284000}
{"value":"$GPGGA,202444.310,3854.7794,N,11522.8575,E,1,08,1.0,20.6,M,,,,0000*35","id":"GPS","timestamp":1464870284000}
{"value":"$GPGGA,202444.313,3852.282,N,11524.379,E,1,08,1.0,20.6,M,,,,0000*35","id":"GPS","timestamp":1464870284000}
{"value":"$GPGGA,202444.317,3853.408,N,11525.6048,E,1,08,1.0,20.6,M,,,,0000*35","id":"GPS","timestamp":1464870284000}
{"value":"$GPGGA,202444.320,3853.7833,N,11523.7948,E,1,08,1.0,20.6,M,,,,0000*35","id":"GPS","timestamp":1464870284000}
{"value":"$GPGGA,202444.325,3859.6307,N,11520.4864,E,1,08,1.0,20.6,M,,,,0000*35","id":"GPS","timestamp":1464870284000}
{"value":"$GPGGA,202444.328,3850.5954,N,11525.1589,E,1,08,1.0,20.6,M,,,,0000*35","id":"GPS","timestamp":1464870284000}
{"value":"$GPGGA,202444.352,3854.121,N,11521.9885,E,1,08,1.0,20.6,M,,,,0000*35","id":"GPS","timestamp":1464870284000}
{"value":"$GPGGA,202444.359,3851.4955,N,11521.9118,E,1,08,1.0,20.6,M,,,,0000*35","id":"GPS","timestamp":1464870284000}
{"value":"$GPGGA,202444.363,3859.691,N,11526.6764,E,1,08,1.0,20.6,M,,,,0000*35","id":"GPS","timestamp":1464870284000}
{"value":"$GPGGA,202444.367,3856.9062,N,11529.3234,E,1,08,1.0,20.6,M,,,,0000*35","id":"GPS","timestamp":1464870284000}
{"value":"$GPGGA,202444.370,3850.5069,N,11529.1664,E,1,08,1.0,20.6,M,,,,0000*35","id":"GPS","timestamp":1464870284000}
{"value":"$GPGGA,202444.373,3857.8029,N,11528.5737,E,1,08,1.0,20.6,M,,,,0000*35","id":"GPS","timestamp":1464870284000}
{"value":"$GPGGA,202444.377,3854.3061,N,11520.0846,E,1,08,1.0,20.6,M,,,,0000*35","id":"GPS","timestamp":1464870284000}
{"value":"$GPGGA,202444.381,3855.3272,N,11528.5096,E,1,08,1.0,20.6,M,,,,0000*35","id":"GPS","timestamp":1464870284000}
{"value":"$GPGGA,202444.384,3858.1379,N,11527.1885,E,1,08,1.0,20.6,M,,,,0000*35","id":"GPS","timestamp":1464870284000}
{"value":"$GPGGA,202444.388,3859.3708,N,11526.1951,E,1,08,1.0,20.6,M,,,,0000*35","id":"GPS","timestamp":1464870284000}
{"value":"$GPGGA,202444.390,3859.6605,N,11520.374,E,1,08,1.0,20.6,M,,,,0000*35","id":"GPS","timestamp":1464870284000}
{"value":"$GPGGA,202444.393,3855.7501,N,11524.8038,E,1,08,1.0,20.6,M,,,,0000*35","id":"GPS","timestamp":1464870284000}
{"value":"$GPGGA,202444.396,3853.5906,N,11528.8599,E,1,08,1.0,20.6,M,,,,0000*35","id":"GPS","timestamp":1464870284000}
{"value":"$GPGGA,202444.400,3851.5716,N,11526.631,E,1,08,1.0,20.6,M,,,,0000*35","id":"GPS","timestamp":1464870284000}
{"value":"$GPGGA,202444.406,3854.8269,N,11529.2581,E,1,08,1.0,20.6,M,,,,0000*35","id":"GPS","timestamp":1464870284000}
{"value":"$GPGGA,202444.409,3852.4384,N,11526.0785,E,1,08,1.0,20.6,M,,,,0000*35","id":"GPS","timestamp":1464870284000}
{"value":"$GPGGA,202444.413,3855.8674,N,11529.2639,E,1,08,1.0,20.6,M,,,,0000*35","id":"GPS","timestamp":1464870284000}
{"value":"$GPGGA,202444.421,3857.2687,N,11526.7905,E,1,08,1.0,20.6,M,,,,0000*35","id":"GPS","timestamp":1464870284000}
{"value":"$GPGGA,202444.427,3854.1073,N,11524.8329,E,1,08,1.0,20.6,M,,,,0000*35","id":"GPS","timestamp":1464870284000}
{"value":"$GPGGA,202444.430,3858.6102,N,11521.0161,E,1,08,1.0,20.6,M,,,,0000*35","id":"GPS","timestamp":1464870284000}
{"value":"$GPGGA,202444.441,3852.3411,N,11528.5713,E,1,08,1.0,20.6,M,,,,0000*35","id":"GPS","timestamp":1464870284000}
{"value":"$GPGGA,202444.445,3858.7848,N,11522.1224,E,1,08,1.0,20.6,M,,,,0000*35","id":"GPS","timestamp":1464870284000}
{"value":"$GPGGA,202444.449,3858.2967,N,11529.3885,E,1,08,1.0,20.6,M,,,,0000*35","id":"GPS","timestamp":1464870284000}
{"value":"$GPGGA,202444.450,3855.6346,N,11521.9048,E,1,08,1.0,20.6,M,,,,0000*35","id":"GPS","timestamp":1464870284000}
{"value":"$GPGGA,202444.456,3854.2764,N,11521.7738,E,1,08,1.0,20.6,M,,,,0000*35","id":"GPS","timestamp":1464870284000}
{"value":"$GPGGA,202444.462,3850.6565,N,11525.9769,E,1,08,1.0,20.6,M,,,,0000*35","id":"GPS","timestamp":1464870284000}
{"value":"$GPGGA,202444.465,3853.1047,N,11529.4902,E,1,08,1.0,20.6,M,,,,0000*35","id":"GPS","timestamp":1464870284000}
{"value":"$GPGGA,202444.468,3856.4785,N,11528.5969,E,1,08,1.0,20.6,M,,,,0000*35","id":"GPS","timestamp":1464870284000}
{"value":"$GPGGA,202444.471,3852.118,N,11528.4615,E,1,08,1.0,20.6,M,,,,0000*35","id":"GPS","timestamp":1464870284000}
{"value":"$GPGGA,202444.474,3857.8886,N,11521.7803,E,1,08,1.0,20.6,M,,,,0000*35","id":"GPS","timestamp":1464870284000}
{"value":"$GPGGA,202444.477,3859.9502,N,11520.8606,E,1,08,1.0,20.6,M,,,,0000*35","id":"GPS","timestamp":1464870284000}
{"value":"$GPGGA,202444.480,3856.5269,N,11528.3404,E,1,08,1.0,20.6,M,,,,0000*35","id":"GPS","timestamp":1464870284000}
{"value":"$GPGGA,202444.483,3857.4318,N,11527.5262,E,1,08,1.0,20.6,M,,,,0000*35","id":"GPS","timestamp":1464870284000}
{"value":"$GPGGA,202444.490,3857.493,N,11527.7661,E,1,08,1.0,20.6,M,,,,0000*35","id":"GPS","timestamp":1464870284000}
{"value":"$GPGGA,202444.512,3852.3327,N,11529.1145,E,1,08,1.0,20.6,M,,,,0000*35","id":"GPS","timestamp":1464870284000}
{"value":"$GPGGA,202444.516,3852.911,N,11526.3805,E,1,08,1.0,20.6,M,,,,0000*35","id":"GPS","timestamp":1464870284000}
{"value":"$GPGGA,202444.520,3850.5423,N,11529.377,E,1,08,1.0,20.6,M,,,,0000*35","id":"GPS","timestamp":1464870284000}
{"value":"$GPGGA,202444.530,3854.4131,N,11528.8685,E,1,08,1.0,20.6,M,,,,0000*35","id":"GPS","timestamp":1464870284000}
{"value":"$GPGGA,202444.540,3858.614,N,11520.9054,E,1,08,1.0,20.6,M,,,,0000*35","id":"GPS","timestamp":1464870284000}
{"value":"$GPGGA,202444.582,3855.0002,N,11523.0002,E,1,08,1.0,20.6,M,,,,0000*35","id":"GPS","timestamp":1464870284000}
{"value":"$GPGGA,202444.585,3854.6771,N,11526.6204,E,1,08,1.0,20.6,M,,,,0000*35","id":"GPS","timestamp":1464870284000}
{"value":"$GPGGA,202444.587,3855.8513,N,11527.7899,E,1,08,1.0,20.6,M,,,,0000*35","id":"GPS","timestamp":1464870284000}
{"value":"$GPGGA,202444.589,3853.8131,N,11520.8721,E,1,08,1.0,20.6,M,,,,0000*35","id":"GPS","timestamp":1464870284000}
{"value":"$GPGGA,202444.596,3853.9266,N,11525.8317,E,1,08,1.0,20.6,M,,,,0000*35","id":"GPS","timestamp":1464870284000}
{"value":"$GPGGA,202444.600,3854.9005,N,11525.0972,E,1,08,1.0,20.6,M,,,,0000*35","id":"GPS","timestamp":1464870284000}
{"value":"$GPGGA,202444.604,3851.0857,N,11525.9034,E,1,08,1.0,20.6,M,,,,0000*35","id":"GPS","timestamp":1464870284000}
{"value":"$GPGGA,202444.606,3857.1639,N,11525.8193,E,1,08,1.0,20.6,M,,,,0000*35","id":"GPS","timestamp":1464870284000}
{"value":"$GPGGA,202444.608,3852.9472,N,11527.4989,E,1,08,1.0,20.6,M,,,,0000*35","id":"GPS","timestamp":1464870284000}
{"value":"$GPGGA,202444.614,3853.8015,N,11521.7038,E,1,08,1.0,20.6,M,,,,0000*35","id":"GPS","timestamp":1464870284000}
{"value":"$GPGGA,202444.619,3850.4947,N,11529.7285,E,1,08,1.0,20.6,M,,,,0000*35","id":"GPS","timestamp":1464870284000}
{"value":"$GPGGA,202444.622,3853.0719,N,11526.2718,E,1,08,1.0,20.6,M,,,,0000*35","id":"GPS","timestamp":1464870284000}
{"value":"$GPGGA,202444.627,3859.0098,N,11526.6992,E,1,08,1.0,20.6,M,,,,0000*35","id":"GPS","timestamp":1464870284000}
{"value":"$GPGGA,202444.629,3856.6416,N,11528.8188,E,1,08,1.0,20.6,M,,,,0000*35","id":"GPS","timestamp":1464870284000}
{"value":"$GPGGA,202444.631,3852.349,N,11523.7781,E,1,08,1.0,20.6,M,,,,0000*35","id":"GPS","timestamp":1464870284000}
{"value":"$GPGGA,202444.635,3859.3597,N,11524.4223,E,1,08,1.0,20.6,M,,,,0000*35","id":"GPS","timestamp":1464870284000}
{"value":"$GPGGA,202444.639,3853.9333,N,11527.8594,E,1,08,1.0,20.6,M,,,,0000*35","id":"GPS","timestamp":1464870284000}
{"value":"$GPGGA,202444.644,3855.0631,N,11528.3911,E,1,08,1.0,20.6,M,,,,0000*35","id":"GPS","timestamp":1464870284000}
{"value":"$GPGGA,202444.650,3853.1653,N,11522.3648,E,1,08,1.0,20.6,M,,,,0000*35","id":"GPS","timestamp":1464870284000}
{"value":"$GPGGA,202444.656,3855.5922,N,11527.9013,E,1,08,1.0,20.6,M,,,,0000*35","id":"GPS","timestamp":1464870284000}
{"value":"$GPGGA,202444.661,3859.3372,N,11521.1361,E,1,08,1.0,20.6,M,,,,0000*35","id":"GPS","timestamp":1464870284000}
{"value":"$GPGGA,202444.664,3854.9527,N,11524.702,E,1,08,1.0,20.6,M,,,,0000*35","id":"GPS","timestamp":1464870284000}
{"value":"$GPGGA,202444.667,3855.5966,N,11525.5767,E,1,08,1.0,20.6,M,,,,0000*35","id":"GPS","timestamp":1464870284000}
{"value":"$GPGGA,202444.670,3858.1721,N,11522.6414,E,1,08,1.0,20.6,M,,,,0000*35","id":"GPS","timestamp":1464870284000}
{"value":"$GPGGA,202444.672,3854.8222,N,11522.8746,E,1,08,1.0,20.6,M,,,,0000*35","id":"GPS","timestamp":1464870284000}
{"value":"$GPGGA,202444.684,3857.6725,N,11524.6012,E,1,08,1.0,20.6,M,,,,0000*35","id":"GPS","timestamp":1464870284000}
{"value":"$GPGGA,202444.688,3850.5795,N,11527.4192,E,1,08,1.0,20.6,M,,,,0000*35","id":"GPS","timestamp":1464870284000}
{"value":"$GPGGA,202444.692,3857.0447,N,11527.5806,E,1,08,1.0,20.6,M,,,,0000*35","id":"GPS","timestamp":1464870284000}
{"value":"$GPGGA,202444.694,3859.5503,N,11524.418,E,1,08,1.0,20.6,M,,,,0000*35","id":"GPS","timestamp":1464870284000}
{"value":"$GPGGA,202444.698,3856.9533,N,11528.8103,E,1,08,1.0,20.6,M,,,,0000*35","id":"GPS","timestamp":1464870284000}
{"value":"$GPGGA,202444.701,3851.121,N,11522.4428,E,1,08,1.0,20.6,M,,,,0000*35","id":"GPS","timestamp":1464870284000}
{"value":"$GPGGA,202444.704,3853.6236,N,11522.4607,E,1,08,1.0,20.6,M,,,,0000*35","id":"GPS","timestamp":1464870284000}
{"value":"$GPGGA,202444.706,3856.1977,N,11524.5291,E,1,08,1.0,20.6,M,,,,0000*35","id":"GPS","timestamp":1464870284000}
{"value":"$GPGGA,202444.762,3851.6264,N,11523.1058,E,1,08,1.0,20.6,M,,,,0000*35","id":"GPS","timestamp":1464870284000}
{"value":"$GPGGA,202444.771,3857.5514,N,11520.2441,E,1,08,1.0,20.6,M,,,,0000*35","id":"GPS","timestamp":1464870284000}
{"value":"$GPGGA,202444.775,3851.1819,N,11527.7989,E,1,08,1.0,20.6,M,,,,0000*35","id":"GPS","timestamp":1464870284000}
{"value":"$GPGGA,202444.778,3852.0957,N,11526.5725,E,1,08,1.0,20.6,M,,,,0000*35","id":"GPS","timestamp":1464870284000}
{"value":"$GPGGA,202444.782,3851.2769,N,11523.5124,E,1,08,1.0,20.6,M,,,,0000*35","id":"GPS","timestamp":1464870284000}
{"value":"$GPGGA,202444.810,3856.5445,N,11528.2045,E,1,08,1.0,20.6,M,,,,0000*35","id":"GPS","timestamp":1464870284000}
{"value":"$GPGGA,202444.813,3856.1535,N,11528.2731,E,1,08,1.0,20.6,M,,,,0000*35","id":"GPS","timestamp":1464870284000}
{"value":"$GPGGA,202444.816,3854.0677,N,11522.6906,E,1,08,1.0,20.6,M,,,,0000*35","id":"GPS","timestamp":1464870284000}
{"value":"$GPGGA,202444.819,3859.5665,N,11521.9444,E,1,08,1.0,20.6,M,,,,0000*35","id":"GPS","timestamp":1464870284000}
{"value":"$GPGGA,202444.825,3857.9084,N,11527.6381,E,1,08,1.0,20.6,M,,,,0000*35","id":"GPS","timestamp":1464870284000}
{"value":"$GPGGA,202444.828,3856.9752,N,11523.1121,E,1,08,1.0,20.6,M,,,,0000*35","id":"GPS","timestamp":1464870284000}
{"value":"$GPGGA,202444.831,3851.8204,N,11522.1911,E,1,08,1.0,20.6,M,,,,0000*35","id":"GPS","timestamp":1464870284000}
{"value":"$GPGGA,202444.835,3854.4025,N,11527.0616,E,1,08,1.0,20.6,M,,,,0000*35","id":"GPS","timestamp":1464870284000}
{"value":"$GPGGA,202444.838,3859.3782,N,11520.967,E,1,08,1.0,20.6,M,,,,0000*35","id":"GPS","timestamp":1464870284000}
{"value":"$GPGGA,202444.841,3856.679,N,11521.2759,E,1,08,1.0,20.6,M,,,,0000*35","id":"GPS","timestamp":1464870284000}
{"value":"$GPGGA,202444.844,3854.2835,N,11520.9053,E,1,08,1.0,20.6,M,,,,0000*35","id":"GPS","timestamp":1464870284000}
{"value":"$GPGGA,202444.847,3851.0576,N,11528.5368,E,1,08,1.0,20.6,M,,,,0000*35","id":"GPS","timestamp":1464870284000}
{"value":"$GPGGA,202444.850,3856.6696,N,11525.5376,E,1,08,1.0,20.6,M,,,,0000*35","id":"GPS","timestamp":1464870284000}
{"value":"$GPGGA,202444.852,3854.1705,N,11523.4684,E,1,08,1.0,20.6,M,,,,0000*35","id":"GPS","timestamp":1464870284000}
{"value":"$GPGGA,202444.856,3855.0066,N,11529.2541,E,1,08,1.0,20.6,M,,,,0000*35","id":"GPS","timestamp":1464870284000}
{"value":"$GPGGA,202444.859,3850.9577,N,11528.8241,E,1,08,1.0,20.6,M,,,,0000*35","id":"GPS","timestamp":1464870284000}
{"value":"$GPGGA,202444.861,3857.0759,N,11529.2037,E,1,08,1.0,20.6,M,,,,0000*35","id":"GPS","timestamp":1464870284000}
{"value":"$GPGGA,202444.864,3853.6443,N,11528.4785,E,1,08,1.0,20.6,M,,,,0000*35","id":"GPS","timestamp":1464870284000}
{"value":"$GPGGA,202444.866,3856.4383,N,11524.7636,E,1,08,1.0,20.6,M,,,,0000*35","id":"GPS","timestamp":1464870284000}
{"value":"$GPGGA,202444.869,3857.4739,N,11523.111,E,1,08,1.0,20.6,M,,,,0000*35","id":"GPS","timestamp":1464870284000}
{"value":"$GPGGA,202444.872,3852.6996,N,11521.6216,E,1,08,1.0,20.6,M,,,,0000*35","id":"GPS","timestamp":1464870284000}
{"value":"$GPGGA,202444.874,3857.3166,N,11525.8011,E,1,08,1.0,20.6,M,,,,0000*35","id":"GPS","timestamp":1464870284000}
{"value":"$GPGGA,202444.882,3852.85,N,11525.0051,E,1,08,1.0,20.6,M,,,,0000*35","id":"GPS","timestamp":1464870284000}
{"value":"$GPGGA,202444.886,3851.5723,N,11529.3263,E,1,08,1.0,20.6,M,,,,0000*35","id":"GPS","timestamp":1464870284000}
{"value":"$GPGGA,202444.889,3851.3114,N,11526.032,E,1,08,1.0,20.6,M,,,,0000*35","id":"GPS","timestamp":1464870284000}
{"value":"$GPGGA,202444.891,3856.4536,N,11529.2065,E,1,08,1.0,20.6,M,,,,0000*35","id":"GPS","timestamp":1464870284000}
{"value":"$GPGGA,202444.894,3852.994,N,11523.0367,E,1,08,1.0,20.6,M,,,,0000*35","id":"GPS","timestamp":1464870284000}
{"value":"$GPGGA,202444.896,3851.6523,N,11520.3924,E,1,08,1.0,20.6,M,,,,0000*35","id":"GPS","timestamp":1464870284000}
{"value":"$GPGGA,202444.899,3853.6861,N,11529.8721,E,1,08,1.0,20.6,M,,,,0000*35","id":"GPS","timestamp":1464870284000}
{"value":"$GPGGA,202444.902,3852.791,N,11524.1775,E,1,08,1.0,20.6,M,,,,0000*35","id":"GPS","timestamp":1464870284000}
{"value":"$GPGGA,202444.907,3859.2662,N,11528.0712,E,1,08,1.0,20.6,M,,,,0000*35","id":"GPS","timestamp":1464870284000}
{"value":"$GPGGA,202444.911,3855.1398,N,11522.2828,E,1,08,1.0,20.6,M,,,,0000*35","id":"GPS","timestamp":1464870284000}
{"value":"$GPGGA,202444.914,3858.7627,N,11521.4742,E,1,08,1.0,20.6,M,,,,0000*35","id":"GPS","timestamp":1464870284000}
{"value":"$GPGGA,202444.918,3851.3644,N,11528.5242,E,1,08,1.0,20.6,M,,,,0000*35","id":"GPS","timestamp":1464870284000}
{"value":"$GPGGA,202444.922,3851.159,N,11527.4029,E,1,08,1.0,20.6,M,,,,0000*35","id":"GPS","timestamp":1464870284000}
{"value":"$GPGGA,202444.924,3852.8301,N,11527.795,E,1,08,1.0,20.6,M,,,,0000*35","id":"GPS","timestamp":1464870284000}
{"value":"$GPGGA,202444.926,3853.7702,N,11527.7977,E,1,08,1.0,20.6,M,,,,0000*35","id":"GPS","timestamp":1464870284000}
{"value":"$GPGGA,202444.929,3850.7986,N,11528.9638,E,1,08,1.0,20.6,M,,,,0000*35","id":"GPS","timestamp":1464870284000}
{"value":"$GPGGA,202444.931,3857.0943,N,11522.1325,E,1,08,1.0,20.6,M,,,,0000*35","id":"GPS","timestamp":1464870284000}
{"value":"$GPGGA,202444.934,3859.4082,N,11528.8382,E,1,08,1.0,20.6,M,,,,0000*35","id":"GPS","timestamp":1464870284000}
{"value":"$GPGGA,202444.937,3855.2586,N,11522.896,E,1,08,1.0,20.6,M,,,,0000*35","id":"GPS","timestamp":1464870284000}
{"value":"$GPGGA,202444.939,3855.7061,N,11520.4124,E,1,08,1.0,20.6,M,,,,0000*35","id":"GPS","timestamp":1464870284000}
{"value":"$GPGGA,202444.941,3857.9544,N,11528.0669,E,1,08,1.0,20.6,M,,,,0000*35","id":"GPS","timestamp":1464870284000}
{"value":"$GPGGA,202444.944,3857.7465,N,11520.3421,E,1,08,1.0,20.6,M,,,,0000*35","id":"GPS","timestamp":1464870284000}
{"value":"$GPGGA,202444.947,3850.2313,N,11528.1012,E,1,08,1.0,20.6,M,,,,0000*35","id":"GPS","timestamp":1464870284000}
{"value":"$GPGGA,202444.949,3851.8814,N,11524.0274,E,1,08,1.0,20.6,M,,,,0000*35","id":"GPS","timestamp":1464870284000}
{"value":"$GPGGA,202444.951,3854.6259,N,11525.2645,E,1,08,1.0,20.6,M,,,,0000*35","id":"GPS","timestamp":1464870284000}
{"value":"$GPGGA,202444.954,3859.0324,N,11523.5937,E,1,08,1.0,20.6,M,,,,0000*35","id":"GPS","timestamp":1464870284000}
{"value":"$GPGGA,202444.957,3855.0464,N,11524.5901,E,1,08,1.0,20.6,M,,,,0000*35","id":"GPS","timestamp":1464870284000}
{"value":"$GPGGA,202444.960,3859.0223,N,11521.8316,E,1,08,1.0,20.6,M,,,,0000*35","id":"GPS","timestamp":1464870284000}
{"value":"$GPGGA,202444.962,3854.6517,N,11529.6063,E,1,08,1.0,20.6,M,,,,0000*35","id":"GPS","timestamp":1464870284000}
{"value":"$GPGGA,202444.964,3853.2877,N,11529.1291,E,1,08,1.0,20.6,M,,,,0000*35","id":"GPS","timestamp":1464870284000}
{"value":"$GPGGA,202444.966,3857.2851,N,11521.1275,E,1,08,1.0,20.6,M,,,,0000*35","id":"GPS","timestamp":1464870284000}
{"value":"$GPGGA,202444.977,3850.3231,N,11524.5153,E,1,08,1.0,20.6,M,,,,0000*35","id":"GPS","timestamp":1464870284000}
{"value":"$GPGGA,202444.981,3859.6547,N,11522.6166,E,1,08,1.0,20.6,M,,,,0000*35","id":"GPS","timestamp":1464870284000}
{"value":"$GPGGA,202444.984,3859.5421,N,11524.4897,E,1,08,1.0,20.6,M,,,,0000*35","id":"GPS","timestamp":1464870284000}
{"value":"$GPGGA,202444.987,3859.996,N,11529.705,E,1,08,1.0,20.6,M,,,,0000*35","id":"GPS","timestamp":1464870284000}
{"value":"$GPGGA,202444.991,3852.0072,N,11521.4243,E,1,08,1.0,20.6,M,,,,0000*35","id":"GPS","timestamp":1464870284000}
{"value":"$GPGGA,202444.996,3859.8767,N,11524.7036,E,1,08,1.0,20.6,M,,,,0000*35","id":"GPS","timestamp":1464870284000}
{"value":"$GPGGA,202445.2,3857.2139,N,11527.8697,E,1,08,1.0,20.6,M,,,,0000*35","id":"GPS","timestamp":1464870285000}
{"value":"$GPGGA,202445.2,3850.2934,N,11529.8941,E,1,08,1.0,20.6,M,,,,0000*35","id":"GPS","timestamp":1464870285000}
{"value":"$GPGGA,202445.4,3858.0247,N,11526.2088,E,1,08,1.0,20.6,M,,,,0000*35","id":"GPS","timestamp":1464870285000}
{"value":"$GPGGA,202445.6,3856.8946,N,11520.1065,E,1,08,1.0,20.6,M,,,,0000*35","id":"GPS","timestamp":1464870285000}
{"value":"$GPGGA,202445.9,3852.2063,N,11529.047,E,1,08,1.0,20.6,M,,,,0000*35","id":"GPS","timestamp":1464870285000}
{"value":"$GPGGA,202445.11,3856.8637,N,11522.402,E,1,08,1.0,20.6,M,,,,0000*35","id":"GPS","timestamp":1464870285000}
{"value":"$GPGGA,202445.13,3857.8926,N,11524.3946,E,1,08,1.0,20.6,M,,,,0000*35","id":"GPS","timestamp":1464870285000}
{"value":"$GPGGA,202445.15,3855.5698,N,11524.0392,E,1,08,1.0,20.6,M,,,,0000*35","id":"GPS","timestamp":1464870285000}
{"value":"$GPGGA,202445.18,3857.48,N,11522.9581,E,1,08,1.0,20.6,M,,,,0000*35","id":"GPS","timestamp":1464870285000}
{"value":"$GPGGA,202445.22,3856.0392,N,11526.2112,E,1,08,1.0,20.6,M,,,,0000*35","id":"GPS","timestamp":1464870285000}
{"value":"$GPGGA,202445.26,3857.6157,N,11522.0877,E,1,08,1.0,20.6,M,,,,0000*35","id":"GPS","timestamp":1464870285000}
{"value":"$GPGGA,202445.28,3853.4619,N,11526.1338,E,1,08,1.0,20.6,M,,,,0000*35","id":"GPS","timestamp":1464870285000}
{"value":"$GPGGA,202445.30,3852.0687,N,11529.1592,E,1,08,1.0,20.6,M,,,,0000*35","id":"GPS","timestamp":1464870285000}
{"value":"$GPGGA,202445.33,3858.9282,N,11525.6231,E,1,08,1.0,20.6,M,,,,0000*35","id":"GPS","timestamp":1464870285000}
{"value":"$GPGGA,202445.35,3855.4413,N,11525.1497,E,1,08,1.0,20.6,M,,,,0000*35","id":"GPS","timestamp":1464870285000}
{"value":"$GPGGA,202445.38,3857.6334,N,11520.9303,E,1,08,1.0,20.6,M,,,,0000*35","id":"GPS","timestamp":1464870285000}
{"value":"$GPGGA,202445.40,3853.1694,N,11524.5934,E,1,08,1.0,20.6,M,,,,0000*35","id":"GPS","timestamp":1464870285000}
{"value":"$GPGGA,202445.43,3859.0315,N,11526.9022,E,1,08,1.0,20.6,M,,,,0000*35","id":"GPS","timestamp":1464870285000}
{"value":"$GPGGA,202445.61,3855.6899,N,11529.8917,E,1,08,1.0,20.6,M,,,,0000*35","id":"GPS","timestamp":1464870285000}
{"value":"$GPGGA,202445.70,3858.242,N,11523.8596,E,1,08,1.0,20.6,M,,,,0000*35","id":"GPS","timestamp":1464870285000}
{"value":"$GPGGA,202445.73,3850.1001,N,11525.8227,E,1,08,1.0,20.6,M,,,,0000*35","id":"GPS","timestamp":1464870285000}
{"value":"$GPGGA,202445.75,3851.5293,N,11523.7241,E,1,08,1.0,20.6,M,,,,0000*35","id":"GPS","timestamp":1464870285000}
{"value":"$GPGGA,202445.78,3855.2236,N,11521.4734,E,1,08,1.0,20.6,M,,,,0000*35","id":"GPS","timestamp":1464870285000}
{"value":"$GPGGA,202445.81,3856.6349,N,11526.33,E,1,08,1.0,20.6,M,,,,0000*35","id":"GPS","timestamp":1464870285000}
{"value":"$GPGGA,202445.84,3850.933,N,11522.3317,E,1,08,1.0,20.6,M,,,,0000*35","id":"GPS","timestamp":1464870285000}
{"value":"$GPGGA,202445.86,3850.7276,N,11528.1708,E,1,08,1.0,20.6,M,,,,0000*35","id":"GPS","timestamp":1464870285000}
{"value":"$GPGGA,202445.90,3859.298,N,11524.1623,E,1,08,1.0,20.6,M,,,,0000*35","id":"GPS","timestamp":1464870285000}
{"value":"$GPGGA,202445.97,3855.9404,N,11523.791,E,1,08,1.0,20.6,M,,,,0000*35","id":"GPS","timestamp":1464870285000}
{"value":"$GPGGA,202445.104,3851.4451,N,11524.525,E,1,08,1.0,20.6,M,,,,0000*35","id":"GPS","timestamp":1464870285000}
{"value":"$GPGGA,202445.108,3856.0375,N,11526.3795,E,1,08,1.0,20.6,M,,,,0000*35","id":"GPS","timestamp":1464870285000}
{"value":"$GPGGA,202445.113,3852.1444,N,11523.802,E,1,08,1.0,20.6,M,,,,0000*35","id":"GPS","timestamp":1464870285000}
{"value":"$GPGGA,202445.119,3858.4842,N,11521.0258,E,1,08,1.0,20.6,M,,,,0000*35","id":"GPS","timestamp":1464870285000}
{"value":"$GPGGA,202445.122,3855.6295,N,11528.8159,E,1,08,1.0,20.6,M,,,,0000*35","id":"GPS","timestamp":1464870285000}
{"value":"$GPGGA,202445.124,3859.7985,N,11528.1434,E,1,08,1.0,20.6,M,,,,0000*35","id":"GPS","timestamp":1464870285000}
{"value":"$GPGGA,202445.137,3856.5848,N,11525.7846,E,1,08,1.0,20.6,M,,,,0000*35","id":"GPS","timestamp":1464870285000}
{"value":"$GPGGA,202445.139,3858.2747,N,11521.4779,E,1,08,1.0,20.6,M,,,,0000*35","id":"GPS","timestamp":1464870285000}
{"value":"$GPGGA,202445.140,3857.2579,N,11529.3161,E,1,08,1.0,20.6,M,,,,0000*35","id":"GPS","timestamp":1464870285000}
{"value":"$GPGGA,202445.141,3851.2991,N,11523.1854,E,1,08,1.0,20.6,M,,,,0000*35","id":"GPS","timestamp":1464870285000}
{"value":"$GPGGA,202445.142,3850.8155,N,11523.0737,E,1,08,1.0,20.6,M,,,,0000*35","id":"GPS","timestamp":1464870285000}
{"value":"$GPGGA,202445.143,3856.8335,N,11528.7802,E,1,08,1.0,20.6,M,,,,0000*35","id":"GPS","timestamp":1464870285000}
{"value":"$GPGGA,202445.145,3856.3584,N,11523.2389,E,1,08,1.0,20.6,M,,,,0000*35","id":"GPS","timestamp":1464870285000}
{"value":"$GPGGA,202445.191,3857.8645,N,11525.6603,E,1,08,1.0,20.6,M,,,,0000*35","id":"GPS","timestamp":1464870285000}
{"value":"$GPGGA,202445.212,3856.4316,N,11520.1861,E,1,08,1.0,20.6,M,,,,0000*35","id":"GPS","timestamp":1464870285000}
{"value":"$GPGGA,202445.224,3855.4332,N,11527.8424,E,1,08,1.0,20.6,M,,,,0000*35","id":"GPS","timestamp":1464870285000}
{"value":"$GPGGA,202445.235,3857.3458,N,11525.7351,E,1,08,1.0,20.6,M,,,,0000*35","id":"GPS","timestamp":1464870285000}
{"value":"$GPGGA,202445.239,3854.3571,N,11528.191,E,1,08,1.0,20.6,M,,,,0000*35","id":"GPS","timestamp":1464870285000}
{"value":"$GPGGA,202445.241,3853.4496,N,11527.72,E,1,08,1.0,20.6,M,,,,0000*35","id":"GPS","timestamp":1464870285000}
{"value":"$GPGGA,202445.277,3853.1212,N,11527.095,E,1,08,1.0,20.6,M,,,,0000*35","id":"GPS","timestamp":1464870285000}
{"value":"$GPGGA,202445.277,3851.5297,N,11522.3277,E,1,08,1.0,20.6,M,,,,0000*35","id":"GPS","timestamp":1464870285000}
{"value":"$GPGGA,202445.280,3856.6105,N,11526.3795,E,1,08,1.0,20.6,M,,,,0000*35","id":"GPS","timestamp":1464870285000}
{"value":"$GPGGA,202445.294,3852.302,N,11525.75,E,1,08,1.0,20.6,M,,,,0000*35","id":"GPS","timestamp":1464870285000}
{"value":"$GPGGA,202445.301,3859.832,N,11529.8039,E,1,08,1.0,20.6,M,,,,0000*35","id":"GPS","timestamp":1464870285000}
{"value":"$GPGGA,202445.306,3854.7135,N,11526.0193,E,1,08,1.0,20.6,M,,,,0000*35","id":"GPS","timestamp":1464870285000}
{"value":"$GPGGA,202445.308,3859.0433,N,11521.8849,E,1,08,1.0,20.6,M,,,,0000*35","id":"GPS","timestamp":1464870285000}
{"value":"$GPGGA,202445.311,3854.8122,N,11523.8409,E,1,08,1.0,20.6,M,,,,0000*35","id":"GPS","timestamp":1464870285000}
{"value":"$GPGGA,202445.314,3853.515,N,11526.7709,E,1,08,1.0,20.6,M,,,,0000*35","id":"GPS","timestamp":1464870285000}
{"value":"$GPGGA,202445.317,3858.175,N,11525.2419,E,1,08,1.0,20.6,M,,,,0000*35","id":"GPS","timestamp":1464870285000}
{"value":"$GPGGA,202445.320,3852.8371,N,11523.7538,E,1,08,1.0,20.6,M,,,,0000*35","id":"GPS","timestamp":1464870285000}
{"value":"$GPGGA,202445.329,3852.0595,N,11523.4348,E,1,08,1.0,20.6,M,,,,0000*35","id":"GPS","timestamp":1464870285000}
{"value":"$GPGGA,202445.335,3859.1708,N,11528.3921,E,1,08,1.0,20.6,M,,,,0000*35","id":"GPS","timestamp":1464870285000}
{"value":"$GPGGA,202445.339,3850.8024,N,11527.9064,E,1,08,1.0,20.6,M,,,,0000*35","id":"GPS","timestamp":1464870285000}
{"value":"$GPGGA,202445.344,3851.5589,N,11528.0224,E,1,08,1.0,20.6,M,,,,0000*35","id":"GPS","timestamp":1464870285000}
{"value":"$GPGGA,202445.347,3852.6483,N,11521.3344,E,1,08,1.0,20.6,M,,,,0000*35","id":"GPS","timestamp":1464870285000}
{"value":"$GPGGA,202445.350,3856.8688,N,11523.8195,E,1,08,1.0,20.6,M,,,,0000*35","id":"GPS","timestamp":1464870285000}
{"value":"$GPGGA,202445.354,3856.1673,N,11527.4223,E,1,08,1.0,20.6,M,,,,0000*35","id":"GPS","timestamp":1464870285000}
{"value":"$GPGGA,202445.357,3853.6052,N,11523.6914,E,1,08,1.0,20.6,M,,,,0000*35","id":"GPS","timestamp":1464870285000}
{"value":"$GPGGA,202445.368,3857.0466,N,11529.5691,E,1,08,1.0,20.6,M,,,,0000*35","id":"GPS","timestamp":1464870285000}
{"value":"$GPGGA,202445.374,3859.9126,N,11523.4668,E,1,08,1.0,20.6,M,,,,0000*35","id":"GPS","timestamp":1464870285000}
{"value":"$GPGGA,202445.378,3859.0748,N,11527.9216,E,1,08,1.0,20.6,M,,,,0000*35","id":"GPS","timestamp":1464870285000}
{"value":"$GPGGA,202445.382,3856.1995,N,11529.0455,E,1,08,1.0,20.6,M,,,,0000*35","id":"GPS","timestamp":1464870285000}
{"value":"$GPGGA,202445.386,3850.4507,N,11526.6631,E,1,08,1.0,20.6,M,,,,0000*35","id":"GPS","timestamp":1464870285000}
{"value":"$GPGGA,202445.390,3855.0132,N,11528.4328,E,1,08,1.0,20.6,M,,,,0000*35","id":"GPS","timestamp":1464870285000}
{"value":"$GPGGA,202445.393,3854.2182,N,11525.3779,E,1,08,1.0,20.6,M,,,,0000*35","id":"GPS","timestamp":1464870285000}
{"value":"$GPGGA,202445.396,3853.0319,N,11524.271,E,1,08,1.0,20.6,M,,,,0000*35","id":"GPS","timestamp":1464870285000}
{"value":"$GPGGA,202445.408,3855.7932,N,11521.7029,E,1,08,1.0,20.6,M,,,,0000*35","id":"GPS","timestamp":1464870285000}
{"value":"$GPGGA,202445.414,3854.5358,N,11528.6896,E,1,08,1.0,20.6,M,,,,0000*35","id":"GPS","timestamp":1464870285000}
{"value":"$GPGGA,202445.419,3854.2886,N,11523.7331,E,1,08,1.0,20.6,M,,,,0000*35","id":"GPS","timestamp":1464870285000}
{"value":"$GPGGA,202445.423,3858.3011,N,11529.6153,E,1,08,1.0,20.6,M,,,,0000*35","id":"GPS","timestamp":1464870285000}
{"value":"$GPGGA,202445.426,3853.859,N,11529.4734,E,1,08,1.0,20.6,M,,,,0000*35","id":"GPS","timestamp":1464870285000}
{"value":"$GPGGA,202445.429,3854.0584,N,11525.2,E,1,08,1.0,20.6,M,,,,0000*35","id":"GPS","timestamp":1464870285000}
{"value":"$GPGGA,202445.432,3855.1358,N,11527.2116,E,1,08,1.0,20.6,M,,,,0000*35","id":"GPS","timestamp":1464870285000}
{"value":"$GPGGA,202445.436,3853.9699,N,11528.9051,E,1,08,1.0,20.6,M,,,,0000*35","id":"GPS","timestamp":1464870285000}
{"value":"$GPGGA,202445.442,3858.7703,N,11520.8541,E,1,08,1.0,20.6,M,,,,0000*35","id":"GPS","timestamp":1464870285000}
{"value":"$GPGGA,202445.446,3850.6536,N,11523.452,E,1,08,1.0,20.6,M,,,,0000*35","id":"GPS","timestamp":1464870285000}
{"value":"$GPGGA,202445.448,3856.9139,N,11525.9942,E,1,08,1.0,20.6,M,,,,0000*35","id":"GPS","timestamp":1464870285000}
{"value":"$GPGGA,202445.450,3855.7073,N,11523.2742,E,1,08,1.0,20.6,M,,,,0000*35","id":"GPS","timestamp":1464870285000}
{"value":"$GPGGA,202445.453,3853.2032,N,11523.2445,E,1,08,1.0,20.6,M,,,,0000*35","id":"GPS","timestamp":1464870285000}
{"value":"$GPGGA,202445.460,3858.7892,N,11520.4405,E,1,08,1.0,20.6,M,,,,0000*35","id":"GPS","timestamp":1464870285000}
{"value":"$GPGGA,202445.464,3855.0161,N,11528.993,E,1,08,1.0,20.6,M,,,,0000*35","id":"GPS","timestamp":1464870285000}
{"value":"$GPGGA,202445.467,3853.7262,N,11523.042,E,1,08,1.0,20.6,M,,,,0000*35","id":"GPS","timestamp":1464870285000}
{"value":"$GPGGA,202445.479,3858.1443,N,11521.233,E,1,08,1.0,20.6,M,,,,0000*35","id":"GPS","timestamp":1464870285000}
{"value":"$GPGGA,202445.482,3851.6107,N,11521.5807,E,1,08,1.0,20.6,M,,,,0000*35","id":"GPS","timestamp":1464870285000}
{"value":"$GPGGA,202445.486,3859.7062,N,11521.7013,E,1,08,1.0,20.6,M,,,,0000*35","id":"GPS","timestamp":1464870285000}
{"value":"$GPGGA,202445.495,3855.3495,N,11520.6237,E,1,08,1.0,20.6,M,,,,0000*35","id":"GPS","timestamp":1464870285000}
{"value":"$GPGGA,202445.504,3855.4614,N,11526.9273,E,1,08,1.0,20.6,M,,,,0000*35","id":"GPS","timestamp":1464870285000}
{"value":"$GPGGA,202445.509,3858.6491,N,11523.1381,E,1,08,1.0,20.6,M,,,,0000*35","id":"GPS","timestamp":1464870285000}
{"value":"$GPGGA,202445.521,3859.978,N,11524.6962,E,1,08,1.0,20.6,M,,,,0000*35","id":"GPS","timestamp":1464870285000}
{"value":"$GPGGA,202445.543,3855.1862,N,11527.7068,E,1,08,1.0,20.6,M,,,,0000*35","id":"GPS","timestamp":1464870285000}
{"value":"$GPGGA,202445.548,3854.2482,N,11524.4055,E,1,08,1.0,20.6,M,,,,0000*35","id":"GPS","timestamp":1464870285000}
{"value":"$GPGGA,202445.550,3859.8995,N,11528.1977,E,1,08,1.0,20.6,M,,,,0000*35","id":"GPS","timestamp":1464870285000}
{"value":"$GPGGA,202445.552,3856.0255,N,11520.0483,E,1,08,1.0,20.6,M,,,,0000*35","id":"GPS","timestamp":1464870285000}
{"value":"$GPGGA,202445.554,3851.0243,N,11525.797,E,1,08,1.0,20.6,M,,,,0000*35","id":"GPS","timestamp":1464870285000}
{"value":"$GPGGA,202445.557,3859.5888,N,11524.4684,E,1,08,1.0,20.6,M,,,,0000*35","id":"GPS","timestamp":1464870285000}
{"value":"$GPGGA,202445.559,3854.8466,N,11523.5627,E,1,08,1.0,20.6,M,,,,0000*35","id":"GPS","timestamp":1464870285000}
{"value":"$GPGGA,202445.563,3855.4093,N,11529.5904,E,1,08,1.0,20.6,M,,,,0000*35","id":"GPS","timestamp":1464870285000}
{"value":"$GPGGA,202445.566,3854.6245,N,11529.2834,E,1,08,1.0,20.6,M,,,,0000*35","id":"GPS","timestamp":1464870285000}
{"value":"$GPGGA,202445.568,3859.0752,N,11527.7752,E,1,08,1.0,20.6,M,,,,0000*35","id":"GPS","timestamp":1464870285000}
{"value":"$GPGGA,202445.571,3857.8376,N,11522.7042,E,1,08,1.0,20.6,M,,,,0000*35","id":"GPS","timestamp":1464870285000}
{"value":"$GPGGA,202445.573,3858.2079,N,11528.3737,E,1,08,1.0,20.6,M,,,,0000*35","id":"GPS","timestamp":1464870285000}
{"value":"$GPGGA,202445.575,3857.6472,N,11529.4216,E,1,08,1.0,20.6,M,,,,0000*35","id":"GPS","timestamp":1464870285000}
{"value":"$GPGGA,202445.578,3852.4575,N,11520.0186,E,1,08,1.0,20.6,M,,,,0000*35","id":"GPS","timestamp":1464870285000}
{"value":"$GPGGA,202445.581,3853.5665,N,11522.86,E,1,08,1.0,20.6,M,,,,0000*35","id":"GPS","timestamp":1464870285000}
{"value":"$GPGGA,202445.583,3855.9669,N,11522.1344,E,1,08,1.0,20.6,M,,,,0000*35","id":"GPS","timestamp":1464870285000}
{"value":"$GPGGA,202445.585,3854.863,N,11520.0459,E,1,08,1.0,20.6,M,,,,0000*35","id":"GPS","timestamp":1464870285000}
{"value":"$GPGGA,202445.586,3856.6859,N,11524.8247,E,1,08,1.0,20.6,M,,,,0000*35","id":"GPS","timestamp":1464870285000}
{"value":"$GPGGA,202445.587,3858.0058,N,11523.6704,E,1,08,1.0,20.6,M,,,,0000*35","id":"GPS","timestamp":1464870285000}
{"value":"$GPGGA,202445.588,3858.5971,N,11526.8477,E,1,08,1.0,20.6,M,,,,0000*35","id":"GPS","timestamp":1464870285000}
